[
  {
    "name": "Станция Силикатная",
    "lat": 55.47191,
    "lon": 37.5555
  },
  {
    "name": "Станция Селятино",
    "lat": 55.51729,
    "lon": 36.96652
  },
  {
    "name": "Станция Ховрино",
    "lat": 55.86667,
    "lon": 37.51667
  },
  {
    "name": "Станция Белый Раст",
    "lat": 56.125,
    "lon": 37.45297
  },
  {
    "name": "Станция Электроугли",
    "lat": 55.72936,
    "lon": 38.2008
  },
  {
    "name": "Станция Раменское",
    "lat": 55.56694,
    "lon": 38.23028
  },
  {
    "name": "Станция Купавна",
    "lat": 55.74576,
    "lon": 38.13136
  },
  {
    "name": "Станция Ворсино",
    "lat": 55.23977,
    "lon": 36.66648
  },
  {
    "name": "Станция Люберцы-2",
    "lat": 55.67224,
    "lon": 37.93258
  },
  {
    "name": "Станция Тучково",
    "lat": 55.60111,
    "lon": 36.46806
  },
  {
    "name": "Станция Кресты",
    "lat": 55.2748,
    "lon": 37.11319
  },
  {
    "name": "Станция Кунцево-2",
    "lat": 55.72958,
    "lon": 37.39187
  },
  {
    "name": "Станция Кольцово",
    "lat": 56.7611,
    "lon": 60.81959
  },
  {
    "name": "Станция Шарташ",
    "lat": 56.83053,
    "lon": 60.646285646
  },
  {
    "name": "Станция Екатеринбург-Товарный",
    "lat": 56.8519,
    "lon": 60.6122
  },
  {
    "name": "Новорослесэкспорт",
    "lat": 44.72537492716771,
    "lon": 37.77505448340343
  },
  {
    "name": "Контейнерный терминал НУТЭП",
    "lat": 44.727642,
    "lon": 37.8155849
  },
  {
    "name": "Первый контейнерный терминал",
    "lat": 59.87543886,
    "lon": 30.21942641
  },
  {
    "name": "Контейнерный терминал Санкт-Петербург",
    "lat": 59.87081221454464,
    "lon": 30.198882615343337
  },
  {
    "name": "Станция Бронка",
    "lat": 59.92805,
    "lon": 29.65645
  },
  {
    "name": "Станция Автово",
    "lat": 59.87167,
    "lon": 30.26583
  },
  {
    "name": "Станция Шушары",
    "lat": 59.805,
    "lon": 30.38889
  },
  {
    "name": "Восточная Стивидорная Компания",
    "lat": 42.730484,
    "lon": 133.080379
  },
  {
    "name": "Владивостокский морской торговый порт",
    "lat": 43.097504,
    "lon": 131.86526
  },
  {
    "name": "Владивостокский морской порт «Первомайский»",
    "lat": 43.106102337619156,
    "lon": 131.89899087301723
  },
  {
    "name": "Владивостокский морской контейнерный терминал",
    "lat": 43.101563,
    "lon": 131.89056
  },
  {
    "name": "Пасифик Лоджистик (Соллерс)",
    "lat": 43.105927,
    "lon": 131.934003
  },
  {
    "name": "Катав-Ивановск, Челябинская область",
    "lat": 54.753479,
    "lon": 58.205784
  },
  {
    "name": "Борисоглебск, Воронежская область",
    "lat": 51.368015,
    "lon": 42.075169
  },
  {
    "name": "Грязи, Липецкая область",
    "lat": 52.49612,
    "lon": 39.955162
  },
  {
    "name": "Новокузнецк, Кемеровская область",
    "lat": 53.7575903,
    "lon": 87.1358494
  },
  {
    "name": "Рудня, Смоленская область",
    "lat": 54.9471458,
    "lon": 31.0906286
  },
  {
    "name": "Катайск, Курганская область",
    "lat": 56.2834992,
    "lon": 62.5836525
  },
  {
    "name": "Коркино, Челябинская область",
    "lat": 54.889923,
    "lon": 61.407963
  },
  {
    "name": "Буйнакск, Республика Дагестан",
    "lat": 42.8260906,
    "lon": 47.1219624
  },
  {
    "name": "Амурск, Хабаровский край",
    "lat": 50.2265588,
    "lon": 136.9100919
  },
  {
    "name": "Жигулёвск, Самарская область",
    "lat": 53.4005122,
    "lon": 49.4955657
  },
  {
    "name": "Нягань, Ханты-Мансийский автономный округ",
    "lat": 62.1445646,
    "lon": 65.4349289
  },
  {
    "name": "Томск, Томская область",
    "lat": 56.4887526,
    "lon": 84.9523434
  },
  {
    "name": "Анапа, Краснодарский край",
    "lat": 44.894272,
    "lon": 37.316887
  },
  {
    "name": "Плавск, Тульская область",
    "lat": 53.7068732,
    "lon": 37.2920333
  },
  {
    "name": "Хасавюрт, Республика Дагестан",
    "lat": 43.246916,
    "lon": 46.5855184
  },
  {
    "name": "Александровск-Сахалинский, Сахалинская область",
    "lat": 50.8974983,
    "lon": 142.1591667
  },
  {
    "name": "Билибино, Чукотский автономный округ",
    "lat": 68.0550305,
    "lon": 166.4448515
  },
  {
    "name": "Салехард, Ямало-Ненецкий автономный округ",
    "lat": 66.5375387,
    "lon": 66.6157469
  },
  {
    "name": "Острогожск, Воронежская область",
    "lat": 50.864902,
    "lon": 39.077244
  },
  {
    "name": "Ельня, Смоленская область",
    "lat": 54.5764954,
    "lon": 33.1891698
  },
  {
    "name": "Пятигорск, Ставропольский край",
    "lat": 44.039775,
    "lon": 43.0706669
  },
  {
    "name": "Озёрск, Челябинская область",
    "lat": 55.76046,
    "lon": 60.705101
  },
  {
    "name": "Шарыпово, Красноярский край",
    "lat": 55.5329127,
    "lon": 89.1864204
  },
  {
    "name": "Звенигово, Марий Эл",
    "lat": 55.9718239,
    "lon": 48.016105
  },
  {
    "name": "Барыш, Ульяновская область",
    "lat": 53.6540758,
    "lon": 47.1013737
  },
  {
    "name": "Новодвинск, Архангельская область",
    "lat": 64.419212,
    "lon": 40.793793
  },
  {
    "name": "Отрадное, Ленинградская область",
    "lat": 59.772663,
    "lon": 30.802027
  },
  {
    "name": "Иваново, Ивановская область",
    "lat": 56.9984452,
    "lon": 40.9737394
  },
  {
    "name": "Ростов, Ярославская область",
    "lat": 57.1860076,
    "lon": 39.4249825
  },
  {
    "name": "Вышний Волочёк, Тверская область",
    "lat": 57.5883648,
    "lon": 34.5720732
  },
  {
    "name": "Гагарин, Смоленская область",
    "lat": 55.553306,
    "lon": 34.9968416
  },
  {
    "name": "Казань, Татарстан",
    "lat": 55.7823547,
    "lon": 49.1242266
  },
  {
    "name": "Шлиссельбург, Ленинградская область",
    "lat": 59.940431,
    "lon": 31.0336955
  },
  {
    "name": "Ряжск, Рязанская область",
    "lat": 53.708878,
    "lon": 40.062984
  },
  {
    "name": "Чебаркуль, Челябинская область",
    "lat": 54.977795,
    "lon": 60.37009
  },
  {
    "name": "Ртищево, Саратовская область",
    "lat": 52.2599057,
    "lon": 43.7877429
  },
  {
    "name": "Рязань, Рязанская область",
    "lat": 54.6295687,
    "lon": 39.7425039
  },
  {
    "name": "Галич, Костромская область",
    "lat": 58.381382,
    "lon": 42.347916
  },
  {
    "name": "Бор, Нижегородская область",
    "lat": 56.3598289,
    "lon": 44.0542641
  },
  {
    "name": "Гатчина, Ленинградская область",
    "lat": 59.5706273,
    "lon": 30.1305083
  },
  {
    "name": "Сызрань, Самарская область",
    "lat": 53.15538,
    "lon": 48.474121
  },
  {
    "name": "Асино, Томская область",
    "lat": 56.999187,
    "lon": 86.14167
  },
  {
    "name": "Можга, Удмуртия",
    "lat": 56.4426833,
    "lon": 52.2138722
  },
  {
    "name": "Карабулак, Республика Ингушетия",
    "lat": 43.3094909,
    "lon": 44.910334
  },
  {
    "name": "Воскресенск, Московская область",
    "lat": 55.322518,
    "lon": 38.6816824
  },
  {
    "name": "Калач, Воронежская область",
    "lat": 50.4259519,
    "lon": 41.0161721
  },
  {
    "name": "Шахтёрск, Сахалинская область",
    "lat": 49.1592435,
    "lon": 142.1070013
  },
  {
    "name": "Николаевка, Ульяновская область",
    "lat": 53.1311155,
    "lon": 47.2003659
  },
  {
    "name": "Торжок, Тверская область",
    "lat": 57.040794,
    "lon": 34.973373
  },
  {
    "name": "Медвежьегорск, Карелия",
    "lat": 62.915024,
    "lon": 34.473339
  },
  {
    "name": "Нерюнгри, Саха",
    "lat": 56.6579435,
    "lon": 124.7123042
  },
  {
    "name": "Красногорск, Московская область",
    "lat": 55.8217545,
    "lon": 37.3400897
  },
  {
    "name": "Королёв, Московская область",
    "lat": 55.9190049,
    "lon": 37.8150443
  },
  {
    "name": "Великий Новгород, Новгородская область",
    "lat": 58.5209862,
    "lon": 31.2757862
  },
  {
    "name": "Кропоткин, Краснодарский край",
    "lat": 45.4344413,
    "lon": 40.5750274
  },
  {
    "name": "Светлоград, Ставропольский край",
    "lat": 45.3406133,
    "lon": 42.8459286
  },
  {
    "name": "Ставрополь, Ставропольский край",
    "lat": 45.0433245,
    "lon": 41.9690934
  },
  {
    "name": "Удомля, Тверская область",
    "lat": 57.877998,
    "lon": 35.0042
  },
  {
    "name": "Сегежа, Карелия",
    "lat": 63.7435087,
    "lon": 34.3106868
  },
  {
    "name": "Ясногорск, Тульская область",
    "lat": 54.4792708,
    "lon": 37.693329
  },
  {
    "name": "Лесосибирск, Красноярский край",
    "lat": 58.2165271,
    "lon": 92.5078354
  },
  {
    "name": "Карпинск, Свердловская область",
    "lat": 59.7667893,
    "lon": 60.0009267
  },
  {
    "name": "Тайшет, Иркутская область",
    "lat": 55.9385304,
    "lon": 98.0196711
  },
  {
    "name": "Беслан, Северная Осетия",
    "lat": 43.1875572,
    "lon": 44.5375689
  },
  {
    "name": "Данков, Липецкая область",
    "lat": 53.2533095,
    "lon": 39.1591798
  },
  {
    "name": "Бийск, Алтайский край",
    "lat": 52.5394905,
    "lon": 85.2148673
  },
  {
    "name": "Называевск, Омская область",
    "lat": 55.564896,
    "lon": 71.349365
  },
  {
    "name": "Дербент, Республика Дагестан",
    "lat": 42.057858,
    "lon": 48.2887648
  },
  {
    "name": "Сальск, Ростовская область",
    "lat": 46.476669,
    "lon": 41.541008
  },
  {
    "name": "Лагань, Калмыкия",
    "lat": 45.392059,
    "lon": 47.361282
  },
  {
    "name": "Сенгилей, Ульяновская область",
    "lat": 53.9588733,
    "lon": 48.7872182
  },
  {
    "name": "Сорочинск, Оренбургская область",
    "lat": 52.426971,
    "lon": 53.154175
  },
  {
    "name": "Магнитогорск, Челябинская область",
    "lat": 53.4242184,
    "lon": 58.983136
  },
  {
    "name": "Кяхта, Республика Бурятия",
    "lat": 50.353176,
    "lon": 106.44915
  },
  {
    "name": "Тогучин, Новосибирская область",
    "lat": 55.23769,
    "lon": 84.402458
  },
  {
    "name": "Михайловка, Волгоградская область",
    "lat": 50.0797109,
    "lon": 43.2342365
  },
  {
    "name": "Киров, Кировская область",
    "lat": 58.6035661,
    "lon": 49.6666241
  },
  {
    "name": "Новоульяновск, Ульяновская область",
    "lat": 54.1502073,
    "lon": 48.3856508
  },
  {
    "name": "Лянтор, Ханты-Мансийский автономный округ",
    "lat": 61.622494,
    "lon": 72.165138
  },
  {
    "name": "Яранск, Кировская область",
    "lat": 57.3042882,
    "lon": 47.8855774
  },
  {
    "name": "Кириши, Ленинградская область",
    "lat": 59.450325,
    "lon": 32.010578
  },
  {
    "name": "Дедовск, Московская область",
    "lat": 55.8597808,
    "lon": 37.1206449
  },
  {
    "name": "Невинномысск, Ставропольский край",
    "lat": 44.6245814,
    "lon": 41.9475941
  },
  {
    "name": "Ягодное, Магаданская область",
    "lat": 62.5216788,
    "lon": 149.6253322
  },
  {
    "name": "Ухта, Республика Коми",
    "lat": 63.5623797,
    "lon": 53.6842376
  },
  {
    "name": "Тейково, Ивановская область",
    "lat": 56.8554753,
    "lon": 40.5405863
  },
  {
    "name": "Углич, Ярославская область",
    "lat": 57.526783,
    "lon": 38.316689
  },
  {
    "name": "Ноябрьск, Ямало-Ненецкий автономный округ",
    "lat": 63.2002917,
    "lon": 75.4475807
  },
  {
    "name": "Коряжма, Архангельская область",
    "lat": 61.3152522,
    "lon": 47.1607291
  },
  {
    "name": "Саянск, Иркутская область",
    "lat": 54.1123301,
    "lon": 102.1785158
  },
  {
    "name": "Саратов, Саратовская область",
    "lat": 51.530018,
    "lon": 46.034683
  },
  {
    "name": "Лосино-Петровский, Московская область",
    "lat": 55.8705593,
    "lon": 38.2032701
  },
  {
    "name": "Ейск, Краснодарский край",
    "lat": 46.7112094,
    "lon": 38.2747987
  },
  {
    "name": "Североморск, Мурманская область",
    "lat": 69.069168,
    "lon": 33.416656
  },
  {
    "name": "Искитим, Новосибирская область",
    "lat": 54.6426269,
    "lon": 83.3035676
  },
  {
    "name": "Нижневартовск, Ханты-Мансийский автономный округ",
    "lat": 60.9339411,
    "lon": 76.5814274
  },
  {
    "name": "Дно, Псковская область",
    "lat": 57.8288277,
    "lon": 29.9611357
  },
  {
    "name": "Холмск, Сахалинская область",
    "lat": 47.0545875,
    "lon": 142.0487125
  },
  {
    "name": "Карачаевск, Карачаево-Черкесия",
    "lat": 43.7715594,
    "lon": 41.911979
  },
  {
    "name": "Ола, Магаданская область",
    "lat": 59.5780981,
    "lon": 151.2990699
  },
  {
    "name": "Ступино, Московская область",
    "lat": 54.886598,
    "lon": 38.0772589
  },
  {
    "name": "Йошкар-Ола, Марий Эл",
    "lat": 56.6326996,
    "lon": 47.8975847
  },
  {
    "name": "Октябрьский, Республика Башкортостан",
    "lat": 54.4809722,
    "lon": 53.4660062
  },
  {
    "name": "Гусиноозёрск, Республика Бурятия",
    "lat": 51.289516,
    "lon": 106.527008
  },
  {
    "name": "Чайковский, Пермский край",
    "lat": 56.7787468,
    "lon": 54.1500704
  },
  {
    "name": "Алексеевка, Белгородская область",
    "lat": 50.6299364,
    "lon": 38.6867154
  },
  {
    "name": "Никольское, Ленинградская область",
    "lat": 59.7034799,
    "lon": 30.7861084
  },
  {
    "name": "Тобольск, Тюменская область",
    "lat": 58.1998048,
    "lon": 68.2512924
  },
  {
    "name": "Петухово, Курганская область",
    "lat": 55.065,
    "lon": 67.88736
  },
  {
    "name": "Усмань, Липецкая область",
    "lat": 52.0506929,
    "lon": 39.7399996
  },
  {
    "name": "Кимры, Тверская область",
    "lat": 56.8734395,
    "lon": 37.3556968
  },
  {
    "name": "Ивантеевка, Московская область",
    "lat": 55.9714098,
    "lon": 37.9200739
  },
  {
    "name": "Зерноград, Ростовская область",
    "lat": 46.844845,
    "lon": 40.304813
  },
  {
    "name": "Черноголовка, Московская область",
    "lat": 56.0061165,
    "lon": 38.3835224
  },
  {
    "name": "Куровское, Московская область",
    "lat": 55.5771391,
    "lon": 38.9225824
  },
  {
    "name": "Ленск, Саха",
    "lat": 60.7145488,
    "lon": 114.9172123
  },
  {
    "name": "Саяногорск, Хакасия",
    "lat": 53.0899015,
    "lon": 91.4128377
  },
  {
    "name": "Петропавловск-Камчатский, Камчатский край",
    "lat": 53.0199838,
    "lon": 158.6471356
  },
  {
    "name": "Сольцы, Новгородская область",
    "lat": 58.119003,
    "lon": 30.309679
  },
  {
    "name": "Пушкино, Московская область",
    "lat": 56.0104274,
    "lon": 37.8461892
  },
  {
    "name": "Нижний Тагил, Свердловская область",
    "lat": 57.905149,
    "lon": 59.9508466
  },
  {
    "name": "Бердск, Новосибирская область",
    "lat": 54.75795,
    "lon": 83.1068095
  },
  {
    "name": "Советск, Кировская область",
    "lat": 57.5861888,
    "lon": 48.9586978
  },
  {
    "name": "Кедровый, Томская область",
    "lat": 57.56192,
    "lon": 79.570801
  },
  {
    "name": "Елизово, Камчатский край",
    "lat": 53.1864972,
    "lon": 158.3836712
  },
  {
    "name": "Харовск, Вологодская область",
    "lat": 59.9533237,
    "lon": 40.2068249
  },
  {
    "name": "Димитровград, Ульяновская область",
    "lat": 54.2188995,
    "lon": 49.6038982
  },
  {
    "name": "Печора, Республика Коми",
    "lat": 65.1142862,
    "lon": 57.16074
  },
  {
    "name": "Моршанск, Тамбовская область",
    "lat": 53.4428,
    "lon": 41.813
  },
  {
    "name": "Тверь, Тверская область",
    "lat": 56.858675,
    "lon": 35.9208284
  },
  {
    "name": "Сокол, Вологодская область",
    "lat": 59.462799,
    "lon": 40.112858
  },
  {
    "name": "Котовск, Тамбовская область",
    "lat": 52.5870419,
    "lon": 41.4994249
  },
  {
    "name": "Полевской, Свердловская область",
    "lat": 56.442108,
    "lon": 60.165859
  },
  {
    "name": "Краснотурьинск, Свердловская область",
    "lat": 59.764631,
    "lon": 60.1936117
  },
  {
    "name": "Орехово-Зуево, Московская область",
    "lat": 55.8083278,
    "lon": 38.9790038
  },
  {
    "name": "Невьянск, Свердловская область",
    "lat": 57.4924036,
    "lon": 60.2105408
  },
  {
    "name": "Анадырь, Чукотский автономный округ",
    "lat": 64.7316875,
    "lon": 177.5060925
  },
  {
    "name": "Кириллов, Вологодская область",
    "lat": 59.8590575,
    "lon": 38.3758696
  },
  {
    "name": "Сатка, Челябинская область",
    "lat": 55.0450851,
    "lon": 58.9887256
  },
  {
    "name": "Туймазы, Республика Башкортостан",
    "lat": 54.606537,
    "lon": 53.6974004
  },
  {
    "name": "Котельнич, Кировская область",
    "lat": 58.3053524,
    "lon": 48.3372596
  },
  {
    "name": "Зеленогорск, Красноярский край",
    "lat": 56.11356,
    "lon": 94.589279
  },
  {
    "name": "Белово, Кемеровская область",
    "lat": 54.419323,
    "lon": 86.303429
  },
  {
    "name": "Змеиногорск, Алтайский край",
    "lat": 51.1544658,
    "lon": 82.1979928
  },
  {
    "name": "Петрозаводск, Карелия",
    "lat": 61.7900426,
    "lon": 34.390007
  },
  {
    "name": "Елец, Липецкая область",
    "lat": 52.6219865,
    "lon": 38.5003298
  },
  {
    "name": "Новотроицк, Оренбургская область",
    "lat": 51.196369,
    "lon": 58.298527
  },
  {
    "name": "Рубцовск, Алтайский край",
    "lat": 51.5276264,
    "lon": 81.2176174
  },
  {
    "name": "Зверево, Ростовская область",
    "lat": 48.020645,
    "lon": 40.118561
  },
  {
    "name": "Ворсма, Нижегородская область",
    "lat": 55.988102,
    "lon": 43.275486
  },
  {
    "name": "Междуреченск, Кемеровская область",
    "lat": 53.6863763,
    "lon": 88.0703443
  },
  {
    "name": "Валуйки, Белгородская область",
    "lat": 50.211296,
    "lon": 38.100227
  },
  {
    "name": "Родники, Ивановская область",
    "lat": 57.105225,
    "lon": 41.72839
  },
  {
    "name": "Россошь, Воронежская область",
    "lat": 50.1961874,
    "lon": 39.5764857
  },
  {
    "name": "Барнаул, Алтайский край",
    "lat": 53.3475493,
    "lon": 83.7788448
  },
  {
    "name": "Полярные Зори, Мурманская область",
    "lat": 67.3659225,
    "lon": 32.5010277
  },
  {
    "name": "Хабаровск, Хабаровский край",
    "lat": 48.4812568,
    "lon": 135.0762968
  },
  {
    "name": "Бабаево, Вологодская область",
    "lat": 59.3887129,
    "lon": 35.9499951
  },
  {
    "name": "Ковров, Владимирская область",
    "lat": 56.374603,
    "lon": 41.311676
  },
  {
    "name": "Богородицк, Тульская область",
    "lat": 53.773571,
    "lon": 38.126965
  },
  {
    "name": "Сухиничи, Калужская область",
    "lat": 54.1012793,
    "lon": 35.3394394
  },
  {
    "name": "Кинель, Самарская область",
    "lat": 53.219738,
    "lon": 50.633228
  },
  {
    "name": "Поронайск, Сахалинская область",
    "lat": 49.2216366,
    "lon": 143.1015759
  },
  {
    "name": "Элиста, Калмыкия",
    "lat": 46.306999,
    "lon": 44.270187
  },
  {
    "name": "Нарьян-Мар, Ненецкий автономный округ",
    "lat": 67.6380175,
    "lon": 53.0071044
  },
  {
    "name": "Малмыж, Кировская область",
    "lat": 56.5206314,
    "lon": 50.6775905
  },
  {
    "name": "Дальнереченск, Приморский край",
    "lat": 45.9337195,
    "lon": 133.7349056
  },
  {
    "name": "Дрезна, Московская область",
    "lat": 55.7448093,
    "lon": 38.8491341
  },
  {
    "name": "Калтан, Кемеровская область",
    "lat": 53.519459,
    "lon": 87.286179
  },
  {
    "name": "Новомичуринск, Рязанская область",
    "lat": 54.043011,
    "lon": 39.744011
  },
  {
    "name": "Архангельск, Архангельская область",
    "lat": 64.543022,
    "lon": 40.537121
  },
  {
    "name": "Вихоревка, Иркутская область",
    "lat": 56.124722,
    "lon": 101.171951
  },
  {
    "name": "Балашов, Саратовская область",
    "lat": 51.5546717,
    "lon": 43.1430732
  },
  {
    "name": "Солнечногорск, Московская область",
    "lat": 56.1853501,
    "lon": 36.9781536
  },
  {
    "name": "Ленинское, Еврейская автономная область",
    "lat": 47.9344425,
    "lon": 132.6223808
  },
  {
    "name": "Муром, Владимирская область",
    "lat": 55.5738,
    "lon": 42.0447
  },
  {
    "name": "Краснокаменск, Забайкальский край",
    "lat": 50.096992,
    "lon": 118.041344
  },
  {
    "name": "Юрьев-Польский, Владимирская область",
    "lat": 56.4971948,
    "lon": 39.67864
  },
  {
    "name": "Заводоуковск, Тюменская область",
    "lat": 56.509293,
    "lon": 66.539261
  },
  {
    "name": "Нарткала, Кабардино-Балкария",
    "lat": 43.5561489,
    "lon": 43.8616759
  },
  {
    "name": "Сибай, Республика Башкортостан",
    "lat": 52.720425,
    "lon": 58.665466
  },
  {
    "name": "Электрогорск, Московская область",
    "lat": 55.8792983,
    "lon": 38.7858721
  },
  {
    "name": "Первомайск, Нижегородская область",
    "lat": 54.8666491,
    "lon": 43.8054106
  },
  {
    "name": "Лабинск, Краснодарский край",
    "lat": 44.6347953,
    "lon": 40.7242185
  },
  {
    "name": "Невель, Псковская область",
    "lat": 56.017616,
    "lon": 29.917128
  },
  {
    "name": "Бабушкин, Республика Бурятия",
    "lat": 51.7161749,
    "lon": 105.8635328
  },
  {
    "name": "Алдан, Саха",
    "lat": 58.608414,
    "lon": 125.388222
  },
  {
    "name": "Владивосток, Приморский край",
    "lat": 43.1150678,
    "lon": 131.8855768
  },
  {
    "name": "Щучье, Курганская область",
    "lat": 55.208908,
    "lon": 62.747772
  },
  {
    "name": "Бронницы, Московская область",
    "lat": 55.422,
    "lon": 38.2591
  },
  {
    "name": "Ожерелье, Московская область",
    "lat": 54.8029359,
    "lon": 38.2738244
  },
  {
    "name": "Валдай, Новгородская область",
    "lat": 57.9791414,
    "lon": 33.2537994
  },
  {
    "name": "Тимашёвск, Краснодарский край",
    "lat": 45.6129685,
    "lon": 38.9357743
  },
  {
    "name": "Орёл, Орловская область",
    "lat": 52.9687747,
    "lon": 36.0694937
  },
  {
    "name": "Оха, Сахалинская область",
    "lat": 53.5891992,
    "lon": 142.9496845
  },
  {
    "name": "Киров, Калужская область",
    "lat": 54.0742905,
    "lon": 34.3025979
  },
  {
    "name": "Бутурлиновка, Воронежская область",
    "lat": 50.828491,
    "lon": 40.587322
  },
  {
    "name": "Долгопрудный, Московская область",
    "lat": 55.9341491,
    "lon": 37.5142417
  },
  {
    "name": "Ржев, Тверская область",
    "lat": 56.2565207,
    "lon": 34.328649
  },
  {
    "name": "Лангепас, Ханты-Мансийский автономный округ",
    "lat": 61.247257,
    "lon": 75.189278
  },
  {
    "name": "Армавир, Краснодарский край",
    "lat": 44.9993585,
    "lon": 41.1294061
  },
  {
    "name": "Чита, Забайкальский край",
    "lat": 52.033409,
    "lon": 113.500893
  },
  {
    "name": "Березники, Пермский край",
    "lat": 59.4084171,
    "lon": 56.8036958
  },
  {
    "name": "Тулун, Иркутская область",
    "lat": 54.562096,
    "lon": 100.579216
  },
  {
    "name": "Берёзовский, Свердловская область",
    "lat": 56.9097871,
    "lon": 60.8120254
  },
  {
    "name": "Первоуральск, Свердловская область",
    "lat": 56.9051246,
    "lon": 59.9431941
  },
  {
    "name": "Батайск, Ростовская область",
    "lat": 47.138527,
    "lon": 39.742348
  },
  {
    "name": "Новоуральск, Свердловская область",
    "lat": 57.247047,
    "lon": 60.095818
  },
  {
    "name": "Каменка, Пензенская область",
    "lat": 53.1850012,
    "lon": 44.0529066
  },
  {
    "name": "Туапсе, Краснодарский край",
    "lat": 44.0984747,
    "lon": 39.0718875
  },
  {
    "name": "Кирово-Чепецк, Кировская область",
    "lat": 58.555069,
    "lon": 50.0313048
  },
  {
    "name": "Семёнов, Нижегородская область",
    "lat": 56.788342,
    "lon": 44.49155
  },
  {
    "name": "Торопец, Тверская область",
    "lat": 56.496479,
    "lon": 31.641077
  },
  {
    "name": "Шахты, Ростовская область",
    "lat": 47.7119167,
    "lon": 40.2115699
  },
  {
    "name": "Протвино, Московская область",
    "lat": 54.8707703,
    "lon": 37.2188629
  },
  {
    "name": "Когалым, Ханты-Мансийский автономный округ",
    "lat": 62.26798,
    "lon": 74.4889068
  },
  {
    "name": "Курск, Курская область",
    "lat": 51.7309249,
    "lon": 36.1923123
  },
  {
    "name": "Уфа, Республика Башкортостан",
    "lat": 54.7261409,
    "lon": 55.947499
  },
  {
    "name": "Сковородино, Амурская область",
    "lat": 53.9862567,
    "lon": 123.9373454
  },
  {
    "name": "Стерлитамак, Республика Башкортостан",
    "lat": 53.632374,
    "lon": 55.952259
  },
  {
    "name": "Киселёвск, Кемеровская область",
    "lat": 54.0049872,
    "lon": 86.6354771
  },
  {
    "name": "Новоузенск, Саратовская область",
    "lat": 50.462326,
    "lon": 48.135532
  },
  {
    "name": "Новороссийск, Краснодарский край",
    "lat": 44.7239578,
    "lon": 37.7690711
  },
  {
    "name": "Кстово, Нижегородская область",
    "lat": 56.149551,
    "lon": 44.198032
  },
  {
    "name": "Лебедянь, Липецкая область",
    "lat": 53.0126146,
    "lon": 39.127593
  },
  {
    "name": "Мелеуз, Республика Башкортостан",
    "lat": 52.96328,
    "lon": 55.928612
  },
  {
    "name": "Сафоново, Смоленская область",
    "lat": 55.1084278,
    "lon": 33.2376513
  },
  {
    "name": "Радужный, Ханты-Мансийский автономный округ",
    "lat": 62.135315,
    "lon": 77.462616
  },
  {
    "name": "Ангарск, Иркутская область",
    "lat": 52.5443167,
    "lon": 103.8882138
  },
  {
    "name": "Шумерля, Чувашия",
    "lat": 55.4985162,
    "lon": 46.4186725
  },
  {
    "name": "Советск, Калининградская область",
    "lat": 55.0809688,
    "lon": 21.8882673
  },
  {
    "name": "Белогорск, Амурская область",
    "lat": 50.921326,
    "lon": 128.47287
  },
  {
    "name": "Ревда, Свердловская область",
    "lat": 56.8000651,
    "lon": 59.9086688
  },
  {
    "name": "Киржач, Владимирская область",
    "lat": 56.1592229,
    "lon": 38.8721255
  },
  {
    "name": "Яхрома, Московская область",
    "lat": 56.289936,
    "lon": 37.4838441
  },
  {
    "name": "Чехов, Московская область",
    "lat": 55.1426603,
    "lon": 37.4545328
  },
  {
    "name": "Югорск, Ханты-Мансийский автономный округ",
    "lat": 61.3149709,
    "lon": 63.3315999
  },
  {
    "name": "Тымовское, Сахалинская область",
    "lat": 50.845556,
    "lon": 142.655
  },
  {
    "name": "Мытищи, Московская область",
    "lat": 55.9094928,
    "lon": 37.7339358
  },
  {
    "name": "Пересвет, Московская область",
    "lat": 56.4158101,
    "lon": 38.1736347
  },
  {
    "name": "Далматово, Курганская область",
    "lat": 56.258656,
    "lon": 62.939163
  },
  {
    "name": "Балабаново, Калужская область",
    "lat": 55.1783579,
    "lon": 36.6575564
  },
  {
    "name": "Нариманов, Астраханская область",
    "lat": 46.692261,
    "lon": 47.851238
  },
  {
    "name": "Железногорск, Курская область",
    "lat": 52.3389459,
    "lon": 35.3511755
  },
  {
    "name": "Чухлома, Костромская область",
    "lat": 58.7560222,
    "lon": 42.68065
  },
  {
    "name": "Ирбит, Свердловская область",
    "lat": 57.674042,
    "lon": 63.063778
  },
  {
    "name": "Тутаев, Ярославская область",
    "lat": 57.875385,
    "lon": 39.527214
  },
  {
    "name": "Новошахтинск, Ростовская область",
    "lat": 47.7558886,
    "lon": 39.935987
  },
  {
    "name": "Нижний Новгород, Нижегородская область",
    "lat": 56.3264816,
    "lon": 44.0051395
  },
  {
    "name": "Обь, Новосибирская область",
    "lat": 54.9951335,
    "lon": 82.6933946
  },
  {
    "name": "Волхов, Ленинградская область",
    "lat": 59.9275868,
    "lon": 32.3276803
  },
  {
    "name": "Миасс, Челябинская область",
    "lat": 55.0505685,
    "lon": 60.1087125
  },
  {
    "name": "Шали, Чечня",
    "lat": 43.153942,
    "lon": 45.906578
  },
  {
    "name": "Осинники, Кемеровская область",
    "lat": 53.606995,
    "lon": 87.332893
  },
  {
    "name": "Суджа, Курская область",
    "lat": 51.190585,
    "lon": 35.270946
  },
  {
    "name": "Славянск-на-Кубани, Краснодарский край",
    "lat": 45.2492346,
    "lon": 38.10926744160152
  },
  {
    "name": "Пошехонье, Ярославская область",
    "lat": 58.503201,
    "lon": 39.119701
  },
  {
    "name": "Краснозаводск, Московская область",
    "lat": 56.440507,
    "lon": 38.244339
  },
  {
    "name": "Долинск, Сахалинская область",
    "lat": 47.3241456,
    "lon": 142.7979361
  },
  {
    "name": "Видное, Московская область",
    "lat": 55.5571496,
    "lon": 37.7087142
  },
  {
    "name": "Подольск, Московская область",
    "lat": 55.4308841,
    "lon": 37.5453056
  },
  {
    "name": "Махачкала, Республика Дагестан",
    "lat": 42.9830241,
    "lon": 47.5048717
  },
  {
    "name": "Шацк, Рязанская область",
    "lat": 54.028687,
    "lon": 41.712601
  },
  {
    "name": "Михайлов, Рязанская область",
    "lat": 54.2301856,
    "lon": 39.0274629
  },
  {
    "name": "Набережные Челны, Татарстан",
    "lat": 55.7419774,
    "lon": 52.399207
  },
  {
    "name": "Новозыбков, Брянская область",
    "lat": 52.537086,
    "lon": 31.93367
  },
  {
    "name": "Палатка, Магаданская область",
    "lat": 60.1022208,
    "lon": 150.9370006
  },
  {
    "name": "Арзамас, Нижегородская область",
    "lat": 55.3857356,
    "lon": 43.8165228
  },
  {
    "name": "Татарск, Новосибирская область",
    "lat": 55.216961,
    "lon": 75.962196
  },
  {
    "name": "Дубна, Московская область",
    "lat": 56.6580319,
    "lon": 37.8457493
  },
  {
    "name": "Беломорск, Карелия",
    "lat": 64.5216684,
    "lon": 34.7625835
  },
  {
    "name": "Новосибирск, Новосибирская область",
    "lat": 55.0288307,
    "lon": 82.9226887
  },
  {
    "name": "Исилькуль, Омская область",
    "lat": 54.904892,
    "lon": 71.259987
  },
  {
    "name": "Малоярославец, Калужская область",
    "lat": 55.012181,
    "lon": 36.4590246
  },
  {
    "name": "Тихвин, Ленинградская область",
    "lat": 59.644323,
    "lon": 33.5418624
  },
  {
    "name": "Сердобск, Пензенская область",
    "lat": 52.4559067,
    "lon": 44.2029162
  },
  {
    "name": "Камызяк, Астраханская область",
    "lat": 46.120527,
    "lon": 48.0815617
  },
  {
    "name": "Луга, Ленинградская область",
    "lat": 58.735699,
    "lon": 29.8475013
  },
  {
    "name": "Фрязино, Московская область",
    "lat": 55.954618,
    "lon": 38.0567691
  },
  {
    "name": "Коммунар, Ленинградская область",
    "lat": 59.6221955,
    "lon": 30.3919223
  },
  {
    "name": "Сочи, Краснодарский край",
    "lat": 43.5854823,
    "lon": 39.723109
  },
  {
    "name": "Нолинск, Кировская область",
    "lat": 57.5579577,
    "lon": 49.9294668
  },
  {
    "name": "Холм, Новгородская область",
    "lat": 57.150761,
    "lon": 31.182678
  },
  {
    "name": "Черкесск, Карачаево-Черкесия",
    "lat": 44.2285229,
    "lon": 42.048257
  },
  {
    "name": "Черногорск, Хакасия",
    "lat": 53.828236,
    "lon": 91.31321
  },
  {
    "name": "Никольск, Вологодская область",
    "lat": 59.5304186,
    "lon": 45.4585029
  },
  {
    "name": "Истра, Московская область",
    "lat": 55.9145993,
    "lon": 36.8595482
  },
  {
    "name": "Тольятти, Самарская область",
    "lat": 53.5149884,
    "lon": 49.4073316
  },
  {
    "name": "Балтийск, Калининградская область",
    "lat": 54.6437214,
    "lon": 19.8941584
  },
  {
    "name": "Тамбов, Тамбовская область",
    "lat": 52.7216164,
    "lon": 41.4523988
  },
  {
    "name": "Пролетарск, Ростовская область",
    "lat": 46.700161,
    "lon": 41.724079
  },
  {
    "name": "Железногорск-Илимский, Иркутская область",
    "lat": 56.577915,
    "lon": 104.12294
  },
  {
    "name": "Ярцево, Смоленская область",
    "lat": 55.0662279,
    "lon": 32.6883609
  },
  {
    "name": "Астрахань, Астраханская область",
    "lat": 46.3498308,
    "lon": 48.0326203
  },
  {
    "name": "Омск, Омская область",
    "lat": 54.991375,
    "lon": 73.371529
  },
  {
    "name": "Нефтегорск, Самарская область",
    "lat": 52.80381,
    "lon": 51.163864
  },
  {
    "name": "Энгельс, Саратовская область",
    "lat": 51.5013775,
    "lon": 46.1233093
  },
  {
    "name": "Лиски, Воронежская область",
    "lat": 50.9873813,
    "lon": 39.4972321
  },
  {
    "name": "Юрга, Кемеровская область",
    "lat": 55.7136,
    "lon": 84.934799
  },
  {
    "name": "Прохладный, Кабардино-Балкария",
    "lat": 43.7590017,
    "lon": 44.0103981
  },
  {
    "name": "Комаровский, Оренбургская область",
    "lat": 51.025272,
    "lon": 59.867516
  },
  {
    "name": "Таруса, Калужская область",
    "lat": 54.6992542,
    "lon": 36.8319461
  },
  {
    "name": "Снежинск, Челябинская область",
    "lat": 56.087009,
    "lon": 60.732674
  },
  {
    "name": "Каменск-Шахтинский, Ростовская область",
    "lat": 48.3210807,
    "lon": 40.2650679
  },
  {
    "name": "Гудермес, Чечня",
    "lat": 43.3486103,
    "lon": 46.095945
  },
  {
    "name": "Партизанск, Приморский край",
    "lat": 43.1406647,
    "lon": 133.1433137
  },
  {
    "name": "Мценск, Орловская область",
    "lat": 53.278984,
    "lon": 36.576077
  },
  {
    "name": "Шелехов, Иркутская область",
    "lat": 52.2097478,
    "lon": 104.097683
  },
  {
    "name": "Кизилюрт, Республика Дагестан",
    "lat": 43.1999049,
    "lon": 46.8713343
  },
  {
    "name": "Кызыл, Тыва",
    "lat": 51.719079,
    "lon": 94.4300679
  },
  {
    "name": "Пестово, Новгородская область",
    "lat": 58.5991505,
    "lon": 35.8230767
  },
  {
    "name": "Гаврилов-Ям, Ярославская область",
    "lat": 57.3032827,
    "lon": 39.8537697
  },
  {
    "name": "Болхов, Орловская область",
    "lat": 53.448994,
    "lon": 36.002232
  },
  {
    "name": "Удачный, Саха",
    "lat": 66.411768,
    "lon": 112.2517294
  },
  {
    "name": "Нововоронеж, Воронежская область",
    "lat": 51.30905,
    "lon": 39.2160054
  },
  {
    "name": "Усть-Илимск, Иркутская область",
    "lat": 57.959473,
    "lon": 102.734192
  },
  {
    "name": "Сургут, Ханты-Мансийский автономный округ",
    "lat": 61.254032,
    "lon": 73.3964
  },
  {
    "name": "Губкин, Белгородская область",
    "lat": 51.283714,
    "lon": 37.53466
  },
  {
    "name": "Баксан, Кабардино-Балкария",
    "lat": 43.2117889,
    "lon": 42.5566784
  },
  {
    "name": "Сосногорск, Республика Коми",
    "lat": 63.5895298,
    "lon": 53.9305546
  },
  {
    "name": "Шумиха, Курганская область",
    "lat": 55.228207,
    "lon": 63.282501
  },
  {
    "name": "Няндома, Архангельская область",
    "lat": 61.6612985,
    "lon": 40.1970404
  },
  {
    "name": "Ленинск-Кузнецкий, Кемеровская область",
    "lat": 54.665443,
    "lon": 86.166115
  },
  {
    "name": "Наро-Фоминск, Московская область",
    "lat": 55.3842784,
    "lon": 36.723507
  },
  {
    "name": "Жердевка, Тамбовская область",
    "lat": 51.843933,
    "lon": 41.470367
  },
  {
    "name": "Советский, Ханты-Мансийский автономный округ",
    "lat": 61.362099,
    "lon": 63.57354
  },
  {
    "name": "Находка, Приморский край",
    "lat": 42.8246489,
    "lon": 132.8926
  },
  {
    "name": "Тарко-Сале, Ямало-Ненецкий автономный округ",
    "lat": 64.9219991,
    "lon": 77.779459
  },
  {
    "name": "Каменск-Уральский, Свердловская область",
    "lat": 56.415451,
    "lon": 61.917797
  },
  {
    "name": "Губкинский, Ямало-Ненецкий автономный округ",
    "lat": 64.4337824,
    "lon": 76.4898086
  },
  {
    "name": "Кемь, Карелия",
    "lat": 64.9550895,
    "lon": 34.5697446
  },
  {
    "name": "Благовещенск, Республика Башкортостан",
    "lat": 55.031143,
    "lon": 55.981876
  },
  {
    "name": "Чусовой, Пермский край",
    "lat": 58.282055,
    "lon": 57.821075
  },
  {
    "name": "Дмитровск, Орловская область",
    "lat": 52.509418,
    "lon": 35.145725
  },
  {
    "name": "Чулым, Новосибирская область",
    "lat": 55.09,
    "lon": 80.970459
  },
  {
    "name": "Остров, Псковская область",
    "lat": 57.344631,
    "lon": 28.357817
  },
  {
    "name": "Окуловка, Новгородская область",
    "lat": 58.3740782,
    "lon": 33.3009383
  },
  {
    "name": "Певек, Чукотский автономный округ",
    "lat": 69.7028171,
    "lon": 170.2746851
  },
  {
    "name": "Сухой Лог, Свердловская область",
    "lat": 56.9047389,
    "lon": 62.0350233
  },
  {
    "name": "Ключи, Камчатский край",
    "lat": 56.318218,
    "lon": 160.842178
  },
  {
    "name": "Калуга, Калужская область",
    "lat": 54.5101087,
    "lon": 36.2598115
  },
  {
    "name": "Зарайск, Московская область",
    "lat": 54.7585694,
    "lon": 38.8818137
  },
  {
    "name": "Ногинск, Московская область",
    "lat": 55.8553511,
    "lon": 38.4411898
  },
  {
    "name": "Михайловск, Ставропольский край",
    "lat": 45.1324913,
    "lon": 42.0263304
  },
  {
    "name": "Котельниково, Волгоградская область",
    "lat": 47.6332274,
    "lon": 43.14109
  },
  {
    "name": "Псков, Псковская область",
    "lat": 57.8173923,
    "lon": 28.3343465
  },
  {
    "name": "Минусинск, Красноярский край",
    "lat": 53.7004076,
    "lon": 91.6848003
  },
  {
    "name": "Краснодар, Краснодарский край",
    "lat": 45.0351532,
    "lon": 38.9772396
  },
  {
    "name": "Добрянка, Пермский край",
    "lat": 58.4624764,
    "lon": 56.4007589
  },
  {
    "name": "Выборг, Ленинградская область",
    "lat": 60.732672300000004,
    "lon": 28.74469092882248
  },
  {
    "name": "Узловая, Тульская область",
    "lat": 53.978512,
    "lon": 38.160255
  },
  {
    "name": "Троицк, Челябинская область",
    "lat": 54.0847722,
    "lon": 61.5514047
  },
  {
    "name": "Заволжск, Ивановская область",
    "lat": 57.4909934,
    "lon": 42.13964
  },
  {
    "name": "Уссурийск, Приморский край",
    "lat": 43.7972447,
    "lon": 131.9520752
  },
  {
    "name": "Рыбинск, Ярославская область",
    "lat": 58.050373,
    "lon": 38.834637
  },
  {
    "name": "Лысьва, Пермский край",
    "lat": 58.1016728,
    "lon": 54.3967946
  },
  {
    "name": "Дагестанские Огни, Республика Дагестан",
    "lat": 42.1152434,
    "lon": 48.1864201
  },
  {
    "name": "Кострома, Костромская область",
    "lat": 57.7679158,
    "lon": 40.9269141
  },
  {
    "name": "Муравленко, Ямало-Ненецкий автономный округ",
    "lat": 63.7947977,
    "lon": 74.4969322
  },
  {
    "name": "Топки, Кемеровская область",
    "lat": 55.2751962,
    "lon": 85.6228741
  },
  {
    "name": "Чернушка, Пермский край",
    "lat": 56.5152817,
    "lon": 56.0765041
  },
  {
    "name": "Инта, Республика Коми",
    "lat": 66.0401498,
    "lon": 60.1313631
  },
  {
    "name": "Миллерово, Ростовская область",
    "lat": 48.9196264,
    "lon": 40.391854
  },
  {
    "name": "Воронеж, Воронежская область",
    "lat": 51.6605982,
    "lon": 39.2005858
  },
  {
    "name": "Салават, Республика Башкортостан",
    "lat": 53.361687,
    "lon": 55.924641
  },
  {
    "name": "Гусь-Хрустальный, Владимирская область",
    "lat": 55.6149968,
    "lon": 40.6708665
  },
  {
    "name": "Усолье-Сибирское, Иркутская область",
    "lat": 52.7512013,
    "lon": 103.6621625
  },
  {
    "name": "Полысаево, Кемеровская область",
    "lat": 54.603142,
    "lon": 86.276024
  },
  {
    "name": "Назарово, Красноярский край",
    "lat": 56.011593,
    "lon": 90.418503
  },
  {
    "name": "Навашино, Нижегородская область",
    "lat": 55.544071,
    "lon": 42.188671
  },
  {
    "name": "Бологое, Тверская область",
    "lat": 57.885204,
    "lon": 34.049603
  },
  {
    "name": "Котельники, Московская область",
    "lat": 55.661668,
    "lon": 37.8673073
  },
  {
    "name": "Сосновый Бор, Ленинградская область",
    "lat": 59.8968655,
    "lon": 29.0765628
  },
  {
    "name": "Кашин, Тверская область",
    "lat": 57.361755,
    "lon": 37.611454
  },
  {
    "name": "Елабуга, Татарстан",
    "lat": 55.7577131,
    "lon": 52.0539938
  },
  {
    "name": "Заполярный, Мурманская область",
    "lat": 69.426239,
    "lon": 30.819939
  },
  {
    "name": "Оленегорск, Мурманская область",
    "lat": 68.140732,
    "lon": 33.282597
  },
  {
    "name": "Зима, Иркутская область",
    "lat": 53.9211241,
    "lon": 102.0491543
  },
  {
    "name": "Магадан, Магаданская область",
    "lat": 59.5604768,
    "lon": 150.7988617
  },
  {
    "name": "Кольцово, Новосибирская область",
    "lat": 54.9367736,
    "lon": 83.187139
  },
  {
    "name": "Красноуфимск, Свердловская область",
    "lat": 56.6180735,
    "lon": 57.7713452
  },
  {
    "name": "Эгвекинот, Чукотский автономный округ",
    "lat": 66.3227382,
    "lon": -179.120131
  },
  {
    "name": "Кандалакша, Мурманская область",
    "lat": 67.1507901,
    "lon": 32.4082716
  },
  {
    "name": "Куртамыш, Курганская область",
    "lat": 54.9095859,
    "lon": 64.4283925
  },
  {
    "name": "Люберцы, Московская область",
    "lat": 55.6783142,
    "lon": 37.89377
  },
  {
    "name": "Северодвинск, Архангельская область",
    "lat": 64.563385,
    "lon": 39.823769
  },
  {
    "name": "Грязовец, Вологодская область",
    "lat": 58.8841692,
    "lon": 40.2515006
  },
  {
    "name": "Кунгур, Пермский край",
    "lat": 57.428844,
    "lon": 56.944328
  },
  {
    "name": "Полярный, Мурманская область",
    "lat": 69.199524,
    "lon": 33.445839
  },
  {
    "name": "Балаково, Саратовская область",
    "lat": 52.01812,
    "lon": 47.819141
  },
  {
    "name": "Копейск, Челябинская область",
    "lat": 55.1131951,
    "lon": 61.6216332
  },
  {
    "name": "Мышкин, Ярославская область",
    "lat": 57.784725,
    "lon": 38.451595
  },
  {
    "name": "Светлый, Калининградская область",
    "lat": 54.673355,
    "lon": 20.131153
  },
  {
    "name": "Павловский Посад, Московская область",
    "lat": 55.7813357,
    "lon": 38.6507838
  },
  {
    "name": "Новосокольники, Псковская область",
    "lat": 56.347385,
    "lon": 30.152925
  },
  {
    "name": "Череповец, Вологодская область",
    "lat": 59.128696,
    "lon": 37.916389
  },
  {
    "name": "Одинцово, Московская область",
    "lat": 55.678223,
    "lon": 37.2668096
  },
  {
    "name": "Янаул, Республика Башкортостан",
    "lat": 56.2714237,
    "lon": 54.9294823
  },
  {
    "name": "Краснообск, Новосибирская область",
    "lat": 54.9211081,
    "lon": 82.9905861
  },
  {
    "name": "Камышин, Волгоградская область",
    "lat": 50.0808422,
    "lon": 45.4048003
  },
  {
    "name": "Гвардейск, Калининградская область",
    "lat": 54.6478265,
    "lon": 21.0719431
  },
  {
    "name": "Велиж, Смоленская область",
    "lat": 55.6045223,
    "lon": 31.1949976
  },
  {
    "name": "Верхняя Пышма, Свердловская область",
    "lat": 56.9724682,
    "lon": 60.5738926
  },
  {
    "name": "Новый Уренгой, Ямало-Ненецкий автономный округ",
    "lat": 66.085196,
    "lon": 76.6799167
  },
  {
    "name": "Сортавала, Карелия",
    "lat": 61.70274,
    "lon": 30.691231
  },
  {
    "name": "Пермь, Пермский край",
    "lat": 58.014965,
    "lon": 56.246723
  },
  {
    "name": "Вятские Поляны, Кировская область",
    "lat": 56.2229946,
    "lon": 51.0749038
  },
  {
    "name": "Звенигород, Московская область",
    "lat": 55.7293613,
    "lon": 36.8585382
  },
  {
    "name": "Асбест, Свердловская область",
    "lat": 57.0052746,
    "lon": 61.4580765
  },
  {
    "name": "Чадан, Тыва",
    "lat": 51.2840385,
    "lon": 91.5666701
  },
  {
    "name": "Шилка, Забайкальский край",
    "lat": 51.851639,
    "lon": 116.025894
  },
  {
    "name": "Гуково, Ростовская область",
    "lat": 48.0530303,
    "lon": 39.9441925
  },
  {
    "name": "Ижевск, Удмуртия",
    "lat": 56.866557,
    "lon": 53.2094166
  },
  {
    "name": "Нефтекамск, Республика Башкортостан",
    "lat": 56.0884031,
    "lon": 54.2478094
  },
  {
    "name": "Приволжский, Саратовская область",
    "lat": 51.408405,
    "lon": 46.0403347
  },
  {
    "name": "Урюпинск, Волгоградская область",
    "lat": 50.7970972,
    "lon": 42.0051866
  },
  {
    "name": "Клинцы, Брянская область",
    "lat": 52.758511,
    "lon": 32.240097
  },
  {
    "name": "Краснослободск, Мордовия",
    "lat": 54.4306717,
    "lon": 43.7778997
  },
  {
    "name": "Кохма, Ивановская область",
    "lat": 56.9315448,
    "lon": 41.0939402
  },
  {
    "name": "Аткарск, Саратовская область",
    "lat": 51.8750207,
    "lon": 44.997499
  },
  {
    "name": "Касимов, Рязанская область",
    "lat": 54.939693,
    "lon": 41.39518
  },
  {
    "name": "Саранск, Мордовия",
    "lat": 54.18671,
    "lon": 45.18383
  },
  {
    "name": "Абаза, Хакасия",
    "lat": 52.635566850000004,
    "lon": 90.13435650601781
  },
  {
    "name": "Жирновск, Волгоградская область",
    "lat": 50.978779,
    "lon": 44.778908
  },
  {
    "name": "Минеральные Воды, Ставропольский край",
    "lat": 44.2107377,
    "lon": 43.134969
  },
  {
    "name": "Венёв, Тульская область",
    "lat": 54.3504,
    "lon": 38.2656
  },
  {
    "name": "Урус-Мартан, Чечня",
    "lat": 43.133102,
    "lon": 45.538425
  },
  {
    "name": "Новый Оскол, Белгородская область",
    "lat": 50.764427,
    "lon": 37.863338
  },
  {
    "name": "Якутск, Саха",
    "lat": 62.0274078,
    "lon": 129.7319787
  },
  {
    "name": "Зуевка, Кировская область",
    "lat": 58.4060241,
    "lon": 51.1388605
  },
  {
    "name": "Маркс, Саратовская область",
    "lat": 51.7168963,
    "lon": 46.69679975700504
  },
  {
    "name": "Нефтеюганск, Ханты-Мансийский автономный округ",
    "lat": 61.090309,
    "lon": 72.6101
  },
  {
    "name": "Альметьевск, Татарстан",
    "lat": 54.9005008,
    "lon": 52.2963777
  },
  {
    "name": "Кировград, Свердловская область",
    "lat": 57.4264892,
    "lon": 60.0664537
  },
  {
    "name": "Вилючинск, Камчатский край",
    "lat": 52.931834,
    "lon": 158.405383
  },
  {
    "name": "Фурманов, Ивановская область",
    "lat": 57.248756,
    "lon": 41.10923
  },
  {
    "name": "Озёрск, Калининградская область",
    "lat": 54.408741,
    "lon": 22.014359
  },
  {
    "name": "Воткинск, Удмуртия",
    "lat": 57.052505,
    "lon": 53.990612
  },
  {
    "name": "Новоалтайск, Алтайский край",
    "lat": 53.393341,
    "lon": 83.939407
  },
  {
    "name": "Зеленодольск, Татарстан",
    "lat": 55.8477605,
    "lon": 48.5097031
  },
  {
    "name": "Свободный, Амурская область",
    "lat": 51.377354,
    "lon": 128.13475
  },
  {
    "name": "Ковылкино, Мордовия",
    "lat": 54.0380912,
    "lon": 43.9156202
  },
  {
    "name": "Электроугли, Московская область",
    "lat": 55.7184467,
    "lon": 38.2228192
  },
  {
    "name": "Новочебоксарск, Чувашия",
    "lat": 56.1140023,
    "lon": 47.4870341
  },
  {
    "name": "Спас-Клепики, Рязанская область",
    "lat": 55.130867,
    "lon": 40.176037
  },
  {
    "name": "Химки, Московская область",
    "lat": 55.8917293,
    "lon": 37.4396994
  },
  {
    "name": "Гусев, Калининградская область",
    "lat": 54.5921685,
    "lon": 22.2014752
  },
  {
    "name": "Избербаш, Республика Дагестан",
    "lat": 42.5710804,
    "lon": 47.862999
  },
  {
    "name": "Фролово, Волгоградская область",
    "lat": 49.7645711,
    "lon": 43.6539516
  },
  {
    "name": "Пионерский, Калининградская область",
    "lat": 54.948227,
    "lon": 20.22591
  },
  {
    "name": "Белорецк, Республика Башкортостан",
    "lat": 53.9680705,
    "lon": 58.4099549
  },
  {
    "name": "Хотьково, Московская область",
    "lat": 56.2516797,
    "lon": 37.9780219
  },
  {
    "name": "Красный Яр, Астраханская область",
    "lat": 46.5329449,
    "lon": 48.3526951
  },
  {
    "name": "Волгореченск, Костромская область",
    "lat": 57.440105,
    "lon": 41.157181
  },
  {
    "name": "Октябрьск, Самарская область",
    "lat": 53.164191,
    "lon": 48.6712489
  },
  {
    "name": "Сасово, Рязанская область",
    "lat": 54.35392,
    "lon": 41.926643
  },
  {
    "name": "Дмитров, Московская область",
    "lat": 56.3450695,
    "lon": 37.5200723
  },
  {
    "name": "Мыски, Кемеровская область",
    "lat": 53.71386,
    "lon": 87.800316
  },
  {
    "name": "Карсун, Ульяновская область",
    "lat": 54.1970553,
    "lon": 46.9793449
  },
  {
    "name": "Алапаевск, Свердловская область",
    "lat": 57.850811,
    "lon": 61.695
  },
  {
    "name": "Киреевск, Тульская область",
    "lat": 53.926712,
    "lon": 37.929916
  },
  {
    "name": "Людиново, Калужская область",
    "lat": 53.8646239,
    "lon": 34.447908
  },
  {
    "name": "Дальнегорск, Приморский край",
    "lat": 44.559457,
    "lon": 135.5759241
  },
  {
    "name": "Мантурово, Костромская область",
    "lat": 58.333271,
    "lon": 44.761791
  },
  {
    "name": "Волгодонск, Ростовская область",
    "lat": 47.5182668,
    "lon": 42.1525935
  },
  {
    "name": "Апрелевка, Московская область",
    "lat": 55.5454306,
    "lon": 37.0730417
  },
  {
    "name": "Купино, Новосибирская область",
    "lat": 54.364929,
    "lon": 77.30854
  },
  {
    "name": "Брянск, Брянская область",
    "lat": 53.2423778,
    "lon": 34.3668288
  },
  {
    "name": "Корсаков, Сахалинская область",
    "lat": 46.632815,
    "lon": 142.7810147
  },
  {
    "name": "Бугуруслан, Оренбургская область",
    "lat": 53.6527806,
    "lon": 52.4340458
  },
  {
    "name": "Строитель, Белгородская область",
    "lat": 50.785236,
    "lon": 36.485428
  },
  {
    "name": "Южа, Ивановская область",
    "lat": 56.5840428,
    "lon": 42.0109249
  },
  {
    "name": "Черняховск, Калининградская область",
    "lat": 54.635533,
    "lon": 21.8099822
  },
  {
    "name": "Балахна, Нижегородская область",
    "lat": 56.4870505,
    "lon": 43.6039553
  },
  {
    "name": "Пугачёв, Саратовская область",
    "lat": 52.0121253,
    "lon": 48.8109795
  },
  {
    "name": "Верхний Уфалей, Челябинская область",
    "lat": 56.052029,
    "lon": 60.226448
  },
  {
    "name": "Балей, Забайкальский край",
    "lat": 51.578789,
    "lon": 116.646042
  },
  {
    "name": "Лысково, Нижегородская область",
    "lat": 56.027885,
    "lon": 45.038315
  },
  {
    "name": "Жуковский, Московская область",
    "lat": 55.5972801,
    "lon": 38.1199863
  },
  {
    "name": "Юбилейный, Московская область",
    "lat": 55.9368065,
    "lon": 37.8435779
  },
  {
    "name": "Раменское, Московская область",
    "lat": 55.5709361,
    "lon": 38.2282099
  },
  {
    "name": "Нальчик, Кабардино-Балкария",
    "lat": 43.4769604,
    "lon": 43.5966578
  },
  {
    "name": "Унеча, Брянская область",
    "lat": 52.8449574,
    "lon": 32.6700113
  },
  {
    "name": "Кораблино, Рязанская область",
    "lat": 53.9268971,
    "lon": 40.034462
  },
  {
    "name": "Калининград, Калининградская область",
    "lat": 54.710128,
    "lon": 20.5105838
  },
  {
    "name": "Заозёрск, Мурманская область",
    "lat": 69.400925,
    "lon": 32.441334
  },
  {
    "name": "Волгоград, Волгоградская область",
    "lat": 48.7081906,
    "lon": 44.5153353
  },
  {
    "name": "Геленджик, Краснодарский край",
    "lat": 44.5609447,
    "lon": 38.0766832
  },
  {
    "name": "Любинский, Омская область",
    "lat": 55.156715,
    "lon": 72.699005
  },
  {
    "name": "Отрадный, Самарская область",
    "lat": 53.3758258,
    "lon": 51.3481701
  },
  {
    "name": "Красноармейск, Саратовская область",
    "lat": 51.025776,
    "lon": 45.69252
  },
  {
    "name": "Голицыно, Московская область",
    "lat": 55.6149602,
    "lon": 36.9887625
  },
  {
    "name": "Боровичи, Новгородская область",
    "lat": 58.389009,
    "lon": 33.9068275
  },
  {
    "name": "Тихорецк, Краснодарский край",
    "lat": 45.854679,
    "lon": 40.128124
  },
  {
    "name": "Тюмень, Тюменская область",
    "lat": 57.153534,
    "lon": 65.542274
  },
  {
    "name": "Облучье, Еврейская автономная область",
    "lat": 49.0145149,
    "lon": 131.0538038
  },
  {
    "name": "Талдом, Московская область",
    "lat": 56.730941,
    "lon": 37.528016
  },
  {
    "name": "Прокопьевск, Кемеровская область",
    "lat": 53.8879117,
    "lon": 86.7492072
  },
  {
    "name": "Челябинск, Челябинская область",
    "lat": 55.1598408,
    "lon": 61.4025547
  },
  {
    "name": "Южноуральск, Челябинская область",
    "lat": 54.4425364,
    "lon": 61.2682731
  },
  {
    "name": "Глазов, Удмуртия",
    "lat": 58.1401196,
    "lon": 52.6464388
  },
  {
    "name": "Заринск, Алтайский край",
    "lat": 53.707915,
    "lon": 84.9348606
  },
  {
    "name": "Шатура, Московская область",
    "lat": 55.578403,
    "lon": 39.5437584
  },
  {
    "name": "Краснокамск, Пермский край",
    "lat": 58.0812613,
    "lon": 55.7586943
  },
  {
    "name": "Онега, Архангельская область",
    "lat": 62.9707844,
    "lon": 39.3314836
  },
  {
    "name": "Чаплыгин, Липецкая область",
    "lat": 53.243015,
    "lon": 39.966801
  },
  {
    "name": "Задонск, Липецкая область",
    "lat": 52.387798,
    "lon": 38.92672
  },
  {
    "name": "Суворов, Тульская область",
    "lat": 54.12236,
    "lon": 36.500027
  },
  {
    "name": "Тында, Амурская область",
    "lat": 54.9430169,
    "lon": 124.5099651
  },
  {
    "name": "Выкса, Нижегородская область",
    "lat": 55.318774,
    "lon": 42.1800408
  },
  {
    "name": "Георгиевск, Ставропольский край",
    "lat": 44.1478944,
    "lon": 43.4741718
  },
  {
    "name": "Опочка, Псковская область",
    "lat": 56.71167,
    "lon": 28.656818
  },
  {
    "name": "Скопин, Рязанская область",
    "lat": 53.823524,
    "lon": 39.549274
  },
  {
    "name": "Новосиль, Орловская область",
    "lat": 52.972939,
    "lon": 37.041908
  },
  {
    "name": "Могоча, Забайкальский край",
    "lat": 53.7362642,
    "lon": 119.7624853
  },
  {
    "name": "Сусуман, Магаданская область",
    "lat": 62.779732,
    "lon": 148.15361
  },
  {
    "name": "Мариинск, Кемеровская область",
    "lat": 56.206299,
    "lon": 87.751259
  },
  {
    "name": "Усть-Омчуг, Магаданская область",
    "lat": 61.133163,
    "lon": 149.632477
  },
  {
    "name": "Тавда, Свердловская область",
    "lat": 58.0413743,
    "lon": 65.2719986
  },
  {
    "name": "Алатырь, Чувашия",
    "lat": 54.8419041,
    "lon": 46.5878356
  },
  {
    "name": "Никольск, Пензенская область",
    "lat": 53.714596,
    "lon": 46.085175
  },
  {
    "name": "Лукоянов, Нижегородская область",
    "lat": 55.034821,
    "lon": 44.492725
  },
  {
    "name": "Кимовск, Тульская область",
    "lat": 53.9699,
    "lon": 38.5327
  },
  {
    "name": "Щёкино, Тульская область",
    "lat": 54.004465,
    "lon": 37.5179079
  },
  {
    "name": "Ардон, Северная Осетия",
    "lat": 43.1758059,
    "lon": 44.3055486
  },
  {
    "name": "Лесной, Свердловская область",
    "lat": 58.63644,
    "lon": 59.789658
  },
  {
    "name": "Московский, Московская область",
    "lat": 55.2991144,
    "lon": 37.51861557964261
  },
  {
    "name": "Колпашево, Томская область",
    "lat": 58.313667,
    "lon": 82.903557
  },
  {
    "name": "Слободской, Кировская область",
    "lat": 58.7277816,
    "lon": 50.1771234
  },
  {
    "name": "Ишим, Тюменская область",
    "lat": 56.1092126,
    "lon": 69.457152
  },
  {
    "name": "Обоянь, Курская область",
    "lat": 51.211079,
    "lon": 36.276245
  },
  {
    "name": "Обнинск, Калужская область",
    "lat": 55.0951738,
    "lon": 36.611913
  },
  {
    "name": "Благовещенск, Амурская область",
    "lat": 50.2600417,
    "lon": 127.5337378
  },
  {
    "name": "Черлак, Омская область",
    "lat": 54.154067,
    "lon": 74.7974987
  },
  {
    "name": "Будённовск, Ставропольский край",
    "lat": 44.780533,
    "lon": 44.163357
  },
  {
    "name": "Надым, Ямало-Ненецкий автономный округ",
    "lat": 65.5369941,
    "lon": 72.5199792
  },
  {
    "name": "Кемерово, Кемеровская область",
    "lat": 55.3550907,
    "lon": 86.0871213
  },
  {
    "name": "Рассказово, Тамбовская область",
    "lat": 52.658699,
    "lon": 41.879002
  },
  {
    "name": "Майкоп, Республика Адыгея",
    "lat": 44.6062079,
    "lon": 40.104053
  },
  {
    "name": "Ханты-Мансийск, Ханты-Мансийский автономный округ",
    "lat": 61.0035254,
    "lon": 69.0189684
  },
  {
    "name": "Мирный, Саха",
    "lat": 62.5410457,
    "lon": 113.978516
  },
  {
    "name": "Липецк, Липецкая область",
    "lat": 52.6041877,
    "lon": 39.5936899
  },
  {
    "name": "Большой Камень, Приморский край",
    "lat": 43.1121194,
    "lon": 132.3509104
  },
  {
    "name": "Лыткарино, Московская область",
    "lat": 55.5822477,
    "lon": 37.9080217
  },
  {
    "name": "Всеволожск, Ленинградская область",
    "lat": 60.024006,
    "lon": 30.646042
  },
  {
    "name": "Барабинск, Новосибирская область",
    "lat": 55.3567611,
    "lon": 78.350348
  },
  {
    "name": "Яровое, Алтайский край",
    "lat": 52.919704,
    "lon": 78.563568
  },
  {
    "name": "Пущино, Московская область",
    "lat": 54.8347213,
    "lon": 37.6139685
  },
  {
    "name": "Котово, Волгоградская область",
    "lat": 50.322208,
    "lon": 44.801643
  },
  {
    "name": "Мурманск, Мурманская область",
    "lat": 68.970665,
    "lon": 33.07497
  },
  {
    "name": "Гай, Оренбургская область",
    "lat": 51.471443,
    "lon": 58.440517
  },
  {
    "name": "Владикавказ, Северная Осетия",
    "lat": 43.024593,
    "lon": 44.68211
  },
  {
    "name": "Боготол, Красноярский край",
    "lat": 56.211464,
    "lon": 89.531639
  },
  {
    "name": "Рошаль, Московская область",
    "lat": 55.6583239,
    "lon": 39.8717137
  },
  {
    "name": "Ливны, Орловская область",
    "lat": 52.4253859,
    "lon": 37.6089
  },
  {
    "name": "Дзержинск, Нижегородская область",
    "lat": 56.2382157,
    "lon": 43.4617405
  },
  {
    "name": "Малая Вишера, Новгородская область",
    "lat": 58.844215,
    "lon": 32.218636
  },
  {
    "name": "Котлас, Архангельская область",
    "lat": 61.252151,
    "lon": 46.647629
  },
  {
    "name": "Ульяновск, Ульяновская область",
    "lat": 54.3150278,
    "lon": 48.403373
  },
  {
    "name": "Курган, Курганская область",
    "lat": 55.4409357,
    "lon": 65.3421169
  },
  {
    "name": "Козьмодемьянск, Марий Эл",
    "lat": 56.3324346,
    "lon": 46.5462855
  },
  {
    "name": "Вичуга, Ивановская область",
    "lat": 57.2200735,
    "lon": 41.9239228
  },
  {
    "name": "Советская Гавань, Хабаровский край",
    "lat": 48.9663026,
    "lon": 140.284958
  },
  {
    "name": "Великий Устюг, Вологодская область",
    "lat": 60.7612852,
    "lon": 46.3014666
  },
  {
    "name": "Шебекино, Белгородская область",
    "lat": 50.4049335,
    "lon": 36.8796822
  },
  {
    "name": "Назрань, Республика Ингушетия",
    "lat": 43.2320774,
    "lon": 44.7540128
  },
  {
    "name": "Арсеньев, Приморский край",
    "lat": 44.1644451,
    "lon": 133.2704255
  },
  {
    "name": "Макушино, Курганская область",
    "lat": 55.208321,
    "lon": 67.252739
  },
  {
    "name": "Медногорск, Оренбургская область",
    "lat": 51.4049435,
    "lon": 57.5803138
  },
  {
    "name": "Вилюйск, Саха",
    "lat": 63.754082,
    "lon": 121.626549
  },
  {
    "name": "Великие Луки, Псковская область",
    "lat": 56.342361,
    "lon": 30.527922
  },
  {
    "name": "Карасук, Новосибирская область",
    "lat": 53.9761548,
    "lon": 79.2309531
  },
  {
    "name": "Грозный, Чечня",
    "lat": 43.3197031,
    "lon": 45.6934308
  },
  {
    "name": "Горняк, Алтайский край",
    "lat": 51.0004641,
    "lon": 81.4638583
  },
  {
    "name": "Коломна, Московская область",
    "lat": 55.0938743,
    "lon": 38.7670121
  },
  {
    "name": "Сорск, Хакасия",
    "lat": 54.0016092,
    "lon": 90.2525861
  },
  {
    "name": "Златоуст, Челябинская область",
    "lat": 55.1674213,
    "lon": 59.6792625
  },
  {
    "name": "Черемхово, Иркутская область",
    "lat": 53.148434,
    "lon": 103.070145
  },
  {
    "name": "Белинский, Пензенская область",
    "lat": 52.9669338,
    "lon": 43.4130625
  },
  {
    "name": "Дорогобуж, Смоленская область",
    "lat": 54.9148236,
    "lon": 33.2989051
  },
  {
    "name": "Вельск, Архангельская область",
    "lat": 61.0756446,
    "lon": 42.0979582
  },
  {
    "name": "Щербинка, Московская область",
    "lat": 55.4352014,
    "lon": 37.6484001
  },
  {
    "name": "Ак-Довурак, Тыва",
    "lat": 51.173087,
    "lon": 90.5934434
  },
  {
    "name": "Чебоксары, Чувашия",
    "lat": 56.1307195,
    "lon": 47.2449597
  },
  {
    "name": "Шагонар, Тыва",
    "lat": 51.538721,
    "lon": 92.9194074
  },
  {
    "name": "Белая Холуница, Кировская область",
    "lat": 58.8432546,
    "lon": 50.8528865
  },
  {
    "name": "Рыльск, Курская область",
    "lat": 51.570538,
    "lon": 34.683506
  },
  {
    "name": "Борзя, Забайкальский край",
    "lat": 50.4045212,
    "lon": 116.4776416
  },
  {
    "name": "Лобня, Московская область",
    "lat": 56.0104473,
    "lon": 37.4670831
  },
  {
    "name": "Кингисепп, Ленинградская область",
    "lat": 59.3743982,
    "lon": 28.5981591
  },
  {
    "name": "Данилов, Ярославская область",
    "lat": 58.188808,
    "lon": 40.175114
  },
  {
    "name": "Кудымкар, Пермский край",
    "lat": 59.014606,
    "lon": 54.664135
  },
  {
    "name": "Балашиха, Московская область",
    "lat": 55.7997662,
    "lon": 37.9373707
  },
  {
    "name": "Сергач, Нижегородская область",
    "lat": 55.532822,
    "lon": 45.4616976
  },
  {
    "name": "Высоковск, Московская область",
    "lat": 56.3205097,
    "lon": 36.5521708
  },
  {
    "name": "Поворино, Воронежская область",
    "lat": 51.199276,
    "lon": 42.24094
  },
  {
    "name": "Бирск, Республика Башкортостан",
    "lat": 55.4206774,
    "lon": 55.5407179
  },
  {
    "name": "Стародуб, Брянская область",
    "lat": 52.584446,
    "lon": 32.760098
  },
  {
    "name": "Усинск, Республика Коми",
    "lat": 65.9944237,
    "lon": 57.5570861
  },
  {
    "name": "Моздок, Северная Осетия",
    "lat": 43.735584,
    "lon": 44.653614
  },
  {
    "name": "Переславль-Залесский, Ярославская область",
    "lat": 56.7367178,
    "lon": 38.8462714
  },
  {
    "name": "Кинешма, Ивановская область",
    "lat": 57.4426901,
    "lon": 42.1687834
  },
  {
    "name": "Абакан, Хакасия",
    "lat": 53.72068,
    "lon": 91.4406019
  },
  {
    "name": "Кирсанов, Тамбовская область",
    "lat": 52.654755,
    "lon": 42.72496
  },
  {
    "name": "Николаевск-на-Амуре, Хабаровский край",
    "lat": 53.138729,
    "lon": 140.72493
  },
  {
    "name": "Льгов, Курская область",
    "lat": 51.6906587,
    "lon": 35.2839999
  },
  {
    "name": "Серпухов, Московская область",
    "lat": 54.9155247,
    "lon": 37.4195533
  },
  {
    "name": "Бузулук, Оренбургская область",
    "lat": 52.788502,
    "lon": 52.253899
  },
  {
    "name": "Артём, Приморский край",
    "lat": 43.3570377,
    "lon": 132.1853629
  },
  {
    "name": "Сыктывкар, Республика Коми",
    "lat": 61.6685237,
    "lon": 50.8352024
  },
  {
    "name": "Соликамск, Пермский край",
    "lat": 59.649437,
    "lon": 56.779594
  },
  {
    "name": "Братск, Иркутская область",
    "lat": 56.1517085,
    "lon": 101.6334907
  },
  {
    "name": "Приозерск, Ленинградская область",
    "lat": 61.0385285,
    "lon": 30.1248482
  },
  {
    "name": "Ростов-на-Дону, Ростовская область",
    "lat": 47.2216548,
    "lon": 39.7096061
  },
  {
    "name": "Североуральск, Свердловская область",
    "lat": 60.15016,
    "lon": 59.960517
  },
  {
    "name": "Славгород, Алтайский край",
    "lat": 52.9968921,
    "lon": 78.6485041
  },
  {
    "name": "Старая Купавна, Московская область",
    "lat": 55.8070323,
    "lon": 38.1774172
  },
  {
    "name": "Северск, Томская область",
    "lat": 56.603161,
    "lon": 84.881012
  },
  {
    "name": "Кумертау, Республика Башкортостан",
    "lat": 52.760975,
    "lon": 55.796482
  },
  {
    "name": "Владимир, Владимирская область",
    "lat": 56.1288899,
    "lon": 40.4075203
  },
  {
    "name": "Пикалёво, Ленинградская область",
    "lat": 59.5129787,
    "lon": 34.1773573
  },
  {
    "name": "Рославль, Смоленская область",
    "lat": 53.9483965,
    "lon": 32.8606696
  },
  {
    "name": "Биробиджан, Еврейская автономная область",
    "lat": 48.7881668,
    "lon": 132.9282082
  },
  {
    "name": "Егорьевск, Московская область",
    "lat": 55.3829765,
    "lon": 39.0356223
  },
  {
    "name": "Канск, Красноярский край",
    "lat": 56.205997,
    "lon": 95.706787
  },
  {
    "name": "Буй, Костромская область",
    "lat": 58.4816821,
    "lon": 41.532956
  },
  {
    "name": "Вологда, Вологодская область",
    "lat": 59.2189391,
    "lon": 39.8933913
  },
  {
    "name": "Кузнецк, Пензенская область",
    "lat": 53.112514,
    "lon": 46.600727
  },
  {
    "name": "Железногорск, Красноярский край",
    "lat": 56.250938,
    "lon": 93.53286
  },
  {
    "name": "Сельцо, Брянская область",
    "lat": 53.369976,
    "lon": 34.100616
  },
  {
    "name": "Чудово, Новгородская область",
    "lat": 59.119539,
    "lon": 31.6665887
  },
  {
    "name": "Апатиты, Мурманская область",
    "lat": 67.568626,
    "lon": 33.404392
  },
  {
    "name": "Абдулино, Оренбургская область",
    "lat": 53.6828,
    "lon": 53.655701
  },
  {
    "name": "Шадринск, Курганская область",
    "lat": 56.087364,
    "lon": 63.629482
  },
  {
    "name": "Ликино-Дулёво, Московская область",
    "lat": 55.7043101,
    "lon": 38.9569091
  },
  {
    "name": "Старый Оскол, Белгородская область",
    "lat": 51.298038,
    "lon": 37.833202
  },
  {
    "name": "Заречный, Пензенская область",
    "lat": 53.196014,
    "lon": 45.169273
  },
  {
    "name": "Райчихинск, Амурская область",
    "lat": 49.796788,
    "lon": 129.4030842
  },
  {
    "name": "Красноармейск, Московская область",
    "lat": 56.1210895,
    "lon": 38.1457655
  },
  {
    "name": "Шарья, Костромская область",
    "lat": 58.37257,
    "lon": 45.519306
  },
  {
    "name": "Тырныауз, Кабардино-Балкария",
    "lat": 43.3958986,
    "lon": 42.9230751
  },
  {
    "name": "Харабали, Астраханская область",
    "lat": 47.4083742,
    "lon": 47.2538899
  },
  {
    "name": "Домодедово, Московская область",
    "lat": 55.4368213,
    "lon": 37.7680693
  },
  {
    "name": "Искателей, Ненецкий автономный округ",
    "lat": 67.676239,
    "lon": 53.129215
  },
  {
    "name": "Конаково, Тверская область",
    "lat": 56.7131572,
    "lon": 36.7775654
  },
  {
    "name": "Лесозаводск, Приморский край",
    "lat": 45.4653394,
    "lon": 133.4047457
  },
  {
    "name": "Урай, Ханты-Мансийский автономный округ",
    "lat": 60.12912,
    "lon": 64.803627
  },
  {
    "name": "Щёлково, Московская область",
    "lat": 55.9206499,
    "lon": 37.9915576
  },
  {
    "name": "Давлеканово, Республика Башкортостан",
    "lat": 55.75256,
    "lon": 54.915966
  },
  {
    "name": "Алагир, Северная Осетия",
    "lat": 43.039841,
    "lon": 44.220451
  },
  {
    "name": "Гурьевск, Кемеровская область",
    "lat": 54.284954,
    "lon": 85.931091
  },
  {
    "name": "Болотное, Новосибирская область",
    "lat": 55.6715707,
    "lon": 84.388557
  },
  {
    "name": "Ачинск, Красноярский край",
    "lat": 56.2694846,
    "lon": 90.4953964
  },
  {
    "name": "Качканар, Свердловская область",
    "lat": 58.6981697,
    "lon": 59.4810114
  },
  {
    "name": "Шахунья, Нижегородская область",
    "lat": 57.6730182,
    "lon": 46.6152378
  },
  {
    "name": "Берёзовский, Кемеровская область",
    "lat": 55.6696946,
    "lon": 86.275154
  },
  {
    "name": "Азов, Ростовская область",
    "lat": 47.1139219,
    "lon": 39.4259657
  },
  {
    "name": "Ессентуки, Ставропольский край",
    "lat": 44.0470042,
    "lon": 42.8576575
  },
  {
    "name": "Уварово, Тамбовская область",
    "lat": 51.9838919,
    "lon": 42.2664426
  },
  {
    "name": "Волжск, Марий Эл",
    "lat": 55.8636579,
    "lon": 48.3618598
  },
  {
    "name": "Шуя, Ивановская область",
    "lat": 56.8558465,
    "lon": 41.3838496
  },
  {
    "name": "Смидович, Еврейская автономная область",
    "lat": 48.5956701,
    "lon": 133.8138369
  },
  {
    "name": "Адыгейск, Республика Адыгея",
    "lat": 44.8833775,
    "lon": 39.1909625
  },
  {
    "name": "Козельск, Калужская область",
    "lat": 54.037102,
    "lon": 35.780102
  },
  {
    "name": "Мичуринск, Тамбовская область",
    "lat": 52.8946613,
    "lon": 40.5071721
  },
  {
    "name": "Комсомольск-на-Амуре, Хабаровский край",
    "lat": 50.5497277,
    "lon": 137.0099189
  },
  {
    "name": "Москва",
    "lat": 55.625578,
    "lon": 37.6063916
  },
  {
    "name": "Белебей, Республика Башкортостан",
    "lat": 54.106495,
    "lon": 54.107811
  },
  {
    "name": "Зеленокумск, Ставропольский край",
    "lat": 44.403175,
    "lon": 43.884163
  },
  {
    "name": "Порхов, Псковская область",
    "lat": 57.765289,
    "lon": 29.551878
  },
  {
    "name": "Вольск, Саратовская область",
    "lat": 52.042755,
    "lon": 47.386032
  },
  {
    "name": "Дмитриев-Льговский, Курская область",
    "lat": 52.12849,
    "lon": 35.075439
  },
  {
    "name": "Ефремов, Тульская область",
    "lat": 53.141834,
    "lon": 38.116188
  },
  {
    "name": "Майский, Кабардино-Балкария",
    "lat": 43.6282481,
    "lon": 44.0518741
  },
  {
    "name": "Тюкалинск, Омская область",
    "lat": 55.870556,
    "lon": 72.196617
  },
  {
    "name": "Кисловодск, Ставропольский край",
    "lat": 43.9055311,
    "lon": 42.7157283
  },
  {
    "name": "Салаир, Кемеровская область",
    "lat": 54.232521,
    "lon": 85.798386
  },
  {
    "name": "Сланцы, Ленинградская область",
    "lat": 59.11726,
    "lon": 28.086979
  },
  {
    "name": "Нерехта, Костромская область",
    "lat": 57.6741261,
    "lon": 42.6413083
  },
  {
    "name": "Городовиковск, Калмыкия",
    "lat": 46.082851,
    "lon": 41.934269
  },
  {
    "name": "Ялуторовск, Тюменская область",
    "lat": 56.654934,
    "lon": 66.312752
  },
  {
    "name": "Вязьма, Смоленская область",
    "lat": 55.2129339,
    "lon": 33.9237749
  },
  {
    "name": "Семилуки, Воронежская область",
    "lat": 51.690403,
    "lon": 39.022186
  },
  {
    "name": "Большеречье, Омская область",
    "lat": 56.094585,
    "lon": 74.639519
  },
  {
    "name": "Кувандык, Оренбургская область",
    "lat": 51.478756,
    "lon": 57.350796
  },
  {
    "name": "Печоры, Псковская область",
    "lat": 57.813305,
    "lon": 27.608185
  },
  {
    "name": "Кировск, Мурманская область",
    "lat": 67.6151331,
    "lon": 33.6637527
  },
  {
    "name": "Усть-Джегута, Карачаево-Черкесия",
    "lat": 44.0858961,
    "lon": 41.9722557
  },
  {
    "name": "Малгобек, Республика Ингушетия",
    "lat": 43.5127189,
    "lon": 44.5869588
  },
  {
    "name": "Нижний Ломов, Пензенская область",
    "lat": 53.529991,
    "lon": 43.673626
  },
  {
    "name": "Кизляр, Республика Дагестан",
    "lat": 43.8546727,
    "lon": 46.7139329
  },
  {
    "name": "Рыбное, Рязанская область",
    "lat": 54.7268415,
    "lon": 39.5088612
  },
  {
    "name": "Нерчинск, Забайкальский край",
    "lat": 51.97694,
    "lon": 116.588341
  },
  {
    "name": "Чапаевск, Самарская область",
    "lat": 52.981285,
    "lon": 49.711193
  },
  {
    "name": "Десногорск, Смоленская область",
    "lat": 54.1516661,
    "lon": 33.2881028
  },
  {
    "name": "Электросталь, Московская область",
    "lat": 55.7903785,
    "lon": 38.4405711
  },
  {
    "name": "Белая Калитва, Ростовская область",
    "lat": 48.1751778,
    "lon": 40.7902124
  },
  {
    "name": "Красноярск, Красноярский край",
    "lat": 56.0091173,
    "lon": 92.872586
  },
  {
    "name": "Старая Русса, Новгородская область",
    "lat": 57.9898923,
    "lon": 31.3634905
  },
  {
    "name": "Морозовск, Ростовская область",
    "lat": 48.352379,
    "lon": 41.828762
  },
  {
    "name": "Рузаевка, Мордовия",
    "lat": 54.058735,
    "lon": 44.954391
  },
  {
    "name": "Омутнинск, Кировская область",
    "lat": 58.668304,
    "lon": 52.17625
  },
  {
    "name": "Серов, Свердловская область",
    "lat": 59.6051267,
    "lon": 60.5733483
  },
  {
    "name": "Сарапул, Удмуртия",
    "lat": 56.4774374,
    "lon": 53.8194777
  },
  {
    "name": "Бикин, Хабаровский край",
    "lat": 46.8188381,
    "lon": 134.2581318
  },
  {
    "name": "Павлово, Нижегородская область",
    "lat": 55.965137,
    "lon": 43.071114
  },
  {
    "name": "Инза, Ульяновская область",
    "lat": 53.8579402,
    "lon": 46.3573236
  },
  {
    "name": "Павловск, Воронежская область",
    "lat": 50.4520214,
    "lon": 40.1399663
  },
  {
    "name": "Тара, Омская область",
    "lat": 56.902587,
    "lon": 74.3698652
  },
  {
    "name": "Таганрог, Ростовская область",
    "lat": 47.2153657,
    "lon": 38.9285216
  },
  {
    "name": "Горно-Алтайск, Республика Алтай",
    "lat": 51.957775,
    "lon": 85.963653
  },
  {
    "name": "Клин, Московская область",
    "lat": 56.3355601,
    "lon": 36.7351318
  },
  {
    "name": "Верея, Московская область",
    "lat": 55.343238,
    "lon": 36.185145
  },
  {
    "name": "Макарьев, Костромская область",
    "lat": 57.880402,
    "lon": 43.80724
  },
  {
    "name": "Волоколамск, Московская область",
    "lat": 56.0360129,
    "lon": 35.9583358
  },
  {
    "name": "Ахтубинск, Астраханская область",
    "lat": 48.2848132,
    "lon": 46.1643706
  },
  {
    "name": "Нижнеудинск, Иркутская область",
    "lat": 54.9084881,
    "lon": 99.0302862
  },
  {
    "name": "Стрежевой, Томская область",
    "lat": 60.732758,
    "lon": 77.600807
  },
  {
    "name": "Донецк (Ростовская обл.), Ростовская область",
    "lat": 48.3382864,
    "lon": 39.9509488
  },
  {
    "name": "Похвистнево, Самарская область",
    "lat": 53.646797,
    "lon": 52.123344
  },
  {
    "name": "Дятьково, Брянская область",
    "lat": 53.6003804,
    "lon": 34.3335523
  },
  {
    "name": "Невельск, Сахалинская область",
    "lat": 46.6877802,
    "lon": 141.8601144
  },
  {
    "name": "Екатеринбург, Свердловская область",
    "lat": 56.839104,
    "lon": 60.60825
  },
  {
    "name": "Аша, Челябинская область",
    "lat": 54.9908896,
    "lon": 57.2780531
  },
  {
    "name": "Спасск, Пензенская область",
    "lat": 53.9310306,
    "lon": 43.1885058
  },
  {
    "name": "Мирный, Архангельская область",
    "lat": 62.762352,
    "lon": 40.328644
  },
  {
    "name": "Озёры, Московская область",
    "lat": 54.854209,
    "lon": 38.5598853
  },
  {
    "name": "Завитинск, Амурская область",
    "lat": 50.111154,
    "lon": 129.4402341
  },
  {
    "name": "Хвалынск, Саратовская область",
    "lat": 52.495499,
    "lon": 48.105888
  },
  {
    "name": "Нижнекамск, Татарстан",
    "lat": 55.6412879,
    "lon": 51.8160376
  },
  {
    "name": "Ковдор, Мурманская область",
    "lat": 67.563049,
    "lon": 30.474108
  },
  {
    "name": "Александров, Владимирская область",
    "lat": 56.3962287,
    "lon": 38.7111103
  },
  {
    "name": "Волжский, Волгоградская область",
    "lat": 48.7862021,
    "lon": 44.7519454
  },
  {
    "name": "Снежногорск, Мурманская область",
    "lat": 69.19191,
    "lon": 33.232357
  },
  {
    "name": "Теплоозёрск, Еврейская автономная область",
    "lat": 49.0099037,
    "lon": 131.8847851
  },
  {
    "name": "Красный Сулин, Ростовская область",
    "lat": 47.8932048,
    "lon": 40.0580434
  },
  {
    "name": "Спасск-Дальний, Приморский край",
    "lat": 44.5980135,
    "lon": 132.815701
  },
  {
    "name": "Санкт-Петербург",
    "lat": 59.9606739,
    "lon": 30.1586551
  },
  {
    "name": "Гаджиево, Мурманская область",
    "lat": 69.250359,
    "lon": 33.315281
  },
  {
    "name": "Дзержинский, Московская область",
    "lat": 55.6309186,
    "lon": 37.8496653
  },
  {
    "name": "Таштагол, Кемеровская область",
    "lat": 52.7594694,
    "lon": 87.8484499
  },
  {
    "name": "Соль-Илецк, Оренбургская область",
    "lat": 51.161289,
    "lon": 54.996372
  },
  {
    "name": "Углегорск, Сахалинская область",
    "lat": 49.079296,
    "lon": 142.0633622
  },
  {
    "name": "Кубинка, Московская область",
    "lat": 55.5755486,
    "lon": 36.6952802
  },
  {
    "name": "Пыть-Ях, Ханты-Мансийский автономный округ",
    "lat": 60.755116,
    "lon": 72.839981
  },
  {
    "name": "Каспийск, Республика Дагестан",
    "lat": 42.8881414,
    "lon": 47.6424676
  },
  {
    "name": "Оренбург, Оренбургская область",
    "lat": 51.7671248,
    "lon": 55.0978517
  },
  {
    "name": "Саров, Нижегородская область",
    "lat": 54.9391673,
    "lon": 43.3268812
  },
  {
    "name": "Белгород, Белгородская область",
    "lat": 50.5955595,
    "lon": 36.5873394
  },
  {
    "name": "Закаменск, Республика Бурятия",
    "lat": 50.3778,
    "lon": 103.2915
  },
  {
    "name": "Губаха, Пермский край",
    "lat": 58.842407,
    "lon": 57.555058
  },
  {
    "name": "Пенза, Пензенская область",
    "lat": 53.1953477,
    "lon": 45.0190437
  },
  {
    "name": "Городище, Пензенская область",
    "lat": 53.273724,
    "lon": 45.702282
  },
  {
    "name": "Щигры, Курская область",
    "lat": 51.870821,
    "lon": 36.9131896
  },
  {
    "name": "Самара, Самарская область",
    "lat": 53.2194648,
    "lon": 50.2039316
  },
  {
    "name": "Костомукша, Карелия",
    "lat": 64.5873013,
    "lon": 30.5969076
  },
  {
    "name": "Палана, Камчатский край",
    "lat": 59.0827605,
    "lon": 159.9512943
  },
  {
    "name": "Северобайкальск, Республика Бурятия",
    "lat": 55.635967,
    "lon": 109.335648
  },
  {
    "name": "Канаш, Чувашия",
    "lat": 55.5113818,
    "lon": 47.5067782
  },
  {
    "name": "Реутов, Московская область",
    "lat": 55.7622453,
    "lon": 37.856555
  },
  {
    "name": "Сычёвка, Смоленская область",
    "lat": 55.8269908,
    "lon": 34.2770455
  },
  {
    "name": "Жуков, Калужская область",
    "lat": 55.0338,
    "lon": 36.7489
  },
  {
    "name": "Ишимбай, Республика Башкортостан",
    "lat": 53.4546454,
    "lon": 56.0439119
  },
  {
    "name": "Кондопога, Карелия",
    "lat": 62.20929,
    "lon": 34.268185
  },
  {
    "name": "Петровск, Саратовская область",
    "lat": 52.3094494,
    "lon": 45.3889831
  },
  {
    "name": "Ярославль, Ярославская область",
    "lat": 57.6263877,
    "lon": 39.8933705
  },
  {
    "name": "Лабытнанги, Ямало-Ненецкий автономный округ",
    "lat": 66.6615094,
    "lon": 66.3810869
  },
  {
    "name": "Анжеро-Судженск, Кемеровская область",
    "lat": 56.077808,
    "lon": 86.019356
  },
  {
    "name": "Новокуйбышевск, Самарская область",
    "lat": 53.099243,
    "lon": 49.948364
  },
  {
    "name": "Теберда, Карачаево-Черкесия",
    "lat": 43.4410989,
    "lon": 41.7436988
  },
  {
    "name": "Калачинск, Омская область",
    "lat": 55.049091,
    "lon": 74.582428
  },
  {
    "name": "Иркутск, Иркутская область",
    "lat": 52.2891225,
    "lon": 104.279829
  },
  {
    "name": "Улан-Удэ, Республика Бурятия",
    "lat": 51.8357841,
    "lon": 107.5839105
  },
  {
    "name": "Нея, Костромская область",
    "lat": 58.2940908,
    "lon": 43.8609201
  },
  {
    "name": "Городец, Нижегородская область",
    "lat": 56.647141,
    "lon": 43.476002
  },
  {
    "name": "Карачев, Брянская область",
    "lat": 53.1221822,
    "lon": 34.9825906
  },
  {
    "name": "Краснознаменск, Московская область",
    "lat": 55.5971787,
    "lon": 37.0395057
  },
  {
    "name": "Вытегра, Вологодская область",
    "lat": 61.006498,
    "lon": 36.4514921
  },
  {
    "name": "Шимановск, Амурская область",
    "lat": 51.9987022,
    "lon": 127.6719156
  },
  {
    "name": "Тула, Тульская область",
    "lat": 54.1930321,
    "lon": 37.61754
  },
  {
    "name": "Камень-на-Оби, Алтайский край",
    "lat": 53.7936761,
    "lon": 81.3516358
  },
  {
    "name": "Знаменск, Астраханская область",
    "lat": 48.588829,
    "lon": 45.725632
  },
  {
    "name": "Кондрово, Калужская область",
    "lat": 54.8069199,
    "lon": 35.9301213
  },
  {
    "name": "Южно-Сахалинск, Сахалинская область",
    "lat": 46.9574273,
    "lon": 142.727438
  },
  {
    "name": "Вяземский, Хабаровский край",
    "lat": 47.533455,
    "lon": 134.757874
  },
  {
    "name": "Новочеркасск, Ростовская область",
    "lat": 47.41066,
    "lon": 40.101986
  },
  {
    "name": "Голышманово, Тюменская область",
    "lat": 56.3955,
    "lon": 68.375
  },
  {
    "name": "Ясный, Оренбургская область",
    "lat": 51.036957,
    "lon": 59.873268
  },
  {
    "name": "Неман, Калининградская область",
    "lat": 55.0939604,
    "lon": 21.8777124
  },
  {
    "name": "Собинка, Владимирская область",
    "lat": 55.9903976,
    "lon": 40.0150802
  },
  {
    "name": "Смоленск, Смоленская область",
    "lat": 54.7814057,
    "lon": 32.0461261
  },
  {
    "name": "Орск, Оренбургская область",
    "lat": 51.2305015,
    "lon": 58.4738015
  },
  {
    "name": "Осташков, Тверская область",
    "lat": 57.1557583,
    "lon": 33.1013213
  },
  {
    "name": "Бугульма, Татарстан",
    "lat": 54.5384152,
    "lon": 52.7955953
  },
  {
    "name": "Воркута, Республика Коми",
    "lat": 67.5035662,
    "lon": 64.0627028
  },
  {
    "name": "Кашира, Московская область",
    "lat": 54.837449,
    "lon": 38.1505119
  },
  {
    "name": "Малоархангельск, Орловская область",
    "lat": 52.399578,
    "lon": 36.504021
  },
  {
    "name": "Заволжье, Нижегородская область",
    "lat": 56.639992,
    "lon": 43.399353
  },
  {
    "name": "Дюртюли, Республика Башкортостан",
    "lat": 55.490616,
    "lon": 54.863895
  },
  {
    "name": "Магас, Республика Ингушетия",
    "lat": 43.1666497,
    "lon": 44.8048191
  },
  {
    "name": "Куйбышев, Новосибирская область",
    "lat": 55.4454258,
    "lon": 78.3222294
  },
  {
    "name": "Крымск, Краснодарский край",
    "lat": 44.9295889,
    "lon": 37.9880177
  },
  {
    "name": "Луховицы, Московская область",
    "lat": 54.9655573,
    "lon": 39.0277188
  },
  {
    "name": "Аргун, Чечня",
    "lat": 43.2950455,
    "lon": 45.8688918
  },
  {
    "name": "Сергиев Посад, Московская область",
    "lat": 56.3153284,
    "lon": 38.1359898
  },
  {
    "name": "Южно-Сухокумск, Республика Дагестан",
    "lat": 44.662231,
    "lon": 45.645138
  },
  {
    "name": "Дедовичи, Псковская область",
    "lat": 57.551205,
    "lon": 29.945297
  },
  {
    "name": "Петровск-Забайкальский, Забайкальский край",
    "lat": 51.275215,
    "lon": 108.854485
  },
  {
    "name": "Мегион, Ханты-Мансийский автономный округ",
    "lat": 61.035404,
    "lon": 76.108215
  },
  {
    "name": "Руза, Московская область",
    "lat": 55.8419919,
    "lon": 35.7935257
  },
  {
    "name": "Новомосковск, Тульская область",
    "lat": 54.011013,
    "lon": 38.290943
  },
  {
    "name": "Микунь, Республика Коми",
    "lat": 62.358238,
    "lon": 50.08218
  },
  {
    "name": "Норильск, Красноярский край",
    "lat": 69.3444054,
    "lon": 88.2096151
  },
  {
    "name": "Курчатов, Курская область",
    "lat": 51.659466,
    "lon": 35.658863
  },
  {
    "name": "Вязники, Владимирская область",
    "lat": 56.2469403,
    "lon": 42.1585948
  },
  {
    "name": "Мончегорск, Мурманская область",
    "lat": 67.939903,
    "lon": 32.931679
  },
  {
    "name": "Бежецк, Тверская область",
    "lat": 57.781357,
    "lon": 36.692535
  }
]